[
  {
    "school_id": "SCH001",
    "name": "GPS Korattur East",
    "lat": 13.1027,
    "lng": 80.1635,
    "enrollment": 0,
    "teacher_count": 1,
    "school_type": "primary",
    "block": "Ambattur",
    "district": "Chennai"
  },
  {
    "school_id": "SCH002",
    "name": "GPS Ambattur Main",
    "lat": 13.1140,
    "lng": 80.1600,
    "enrollment": 312,
    "teacher_count": 8,
    "school_type": "primary",
    "block": "Ambattur",
    "district": "Chennai"
  },
  {
    "school_id": "SCH003",
    "name": "GPS Padi North",
    "lat": 13.1065,
    "lng": 80.1710,
    "enrollment": 78,
    "teacher_count": 1,
    "school_type": "primary",
    "block": "Ambattur",
    "district": "Chennai"
  },
  {
    "school_id": "SCH004",
    "name": "GUPS Ambattur Industrial",
    "lat": 13.1185,
    "lng": 80.1520,
    "enrollment": 210,
    "teacher_count": 6,
    "school_type": "upper-primary",
    "block": "Ambattur",
    "district": "Chennai"
  },
  {
    "school_id": "SCH005",
    "name": "GPS Villivakkam South",
    "lat": 13.0940,
    "lng": 80.2035,
    "enrollment": 0,
    "teacher_count": 1,
    "school_type": "primary",
    "block": "Villivakkam",
    "district": "Chennai"
  },
  {
    "school_id": "SCH006",
    "name": "GPS Villivakkam Main",
    "lat": 13.0975,
    "lng": 80.1975,
    "enrollment": 280,
    "teacher_count": 7,
    "school_type": "primary",
    "block": "Villivakkam",
    "district": "Chennai"
  },
  {
    "school_id": "SCH007",
    "name": "GUPS Villivakkam",
    "lat": 13.0955,
    "lng": 80.2010,
    "enrollment": 185,
    "teacher_count": 5,
    "school_type": "upper-primary",
    "block": "Villivakkam",
    "district": "Chennai"
  },
  {
    "school_id": "SCH008",
    "name": "GPS Anna Nagar West",
    "lat": 13.0820,
    "lng": 80.2100,
    "enrollment": 52,
    "teacher_count": 1,
    "school_type": "primary",
    "block": "Anna Nagar",
    "district": "Chennai"
  },
  {
    "school_id": "SCH009",
    "name": "GPS Anna Nagar Main",
    "lat": 13.0870,
    "lng": 80.2130,
    "enrollment": 340,
    "teacher_count": 9,
    "school_type": "primary",
    "block": "Anna Nagar",
    "district": "Chennai"
  },
  {
    "school_id": "SCH010",
    "name": "GUPS Anna Nagar",
    "lat": 13.0850,
    "lng": 80.2090,
    "enrollment": 220,
    "teacher_count": 6,
    "school_type": "upper-primary",
    "block": "Anna Nagar",
    "district": "Chennai"
  },
  {
    "school_id": "SCH011",
    "name": "GPS Kolathur East",
    "lat": 13.1150,
    "lng": 80.2260,
    "enrollment": 0,
    "teacher_count": 2,
    "school_type": "primary",
    "block": "Kolathur",
    "district": "Chennai"
  },
  {
    "school_id": "SCH012",
    "name": "GPS Kolathur Main",
    "lat": 13.1195,
    "lng": 80.2310,
    "enrollment": 295,
    "teacher_count": 8,
    "school_type": "primary",
    "block": "Kolathur",
    "district": "Chennai"
  },
  {
    "school_id": "SCH013",
    "name": "GUPS Kolathur",
    "lat": 13.1170,
    "lng": 80.2285,
    "enrollment": 175,
    "teacher_count": 4,
    "school_type": "upper-primary",
    "block": "Kolathur",
    "district": "Chennai"
  },
  {
    "school_id": "SCH014",
    "name": "GPS Perambur North",
    "lat": 13.1220,
    "lng": 80.2450,
    "enrollment": 63,
    "teacher_count": 1,
    "school_type": "primary",
    "block": "Perambur",
    "district": "Chennai"
  },
  {
    "school_id": "SCH015",
    "name": "GPS Perambur Main",
    "lat": 13.1260,
    "lng": 80.2490,
    "enrollment": 410,
    "teacher_count": 11,
    "school_type": "primary",
    "block": "Perambur",
    "district": "Chennai"
  },
  {
    "school_id": "SCH016",
    "name": "GUPS Perambur",
    "lat": 13.1240,
    "lng": 80.2470,
    "enrollment": 260,
    "teacher_count": 7,
    "school_type": "upper-primary",
    "block": "Perambur",
    "district": "Chennai"
  },
  {
    "school_id": "SCH017",
    "name": "GPS Madhavaram South",
    "lat": 13.1550,
    "lng": 80.2350,
    "enrollment": 0,
    "teacher_count": 1,
    "school_type": "primary",
    "block": "Madhavaram",
    "district": "Chennai"
  },
  {
    "school_id": "SCH018",
    "name": "GPS Madhavaram Main",
    "lat": 13.1620,
    "lng": 80.2410,
    "enrollment": 330,
    "teacher_count": 9,
    "school_type": "primary",
    "block": "Madhavaram",
    "district": "Chennai"
  },
  {
    "school_id": "SCH019",
    "name": "GUPS Madhavaram",
    "lat": 13.1590,
    "lng": 80.2380,
    "enrollment": 195,
    "teacher_count": 5,
    "school_type": "upper-primary",
    "block": "Madhavaram",
    "district": "Chennai"
  },
  {
    "school_id": "SCH020",
    "name": "GPS Ayanavaram West",
    "lat": 13.1010,
    "lng": 80.2340,
    "enrollment": 45,
    "teacher_count": 1,
    "school_type": "primary",
    "block": "Ayanavaram",
    "district": "Chennai"
  },
  {
    "school_id": "SCH021",
    "name": "GPS Ayanavaram Main",
    "lat": 13.1050,
    "lng": 80.2380,
    "enrollment": 275,
    "teacher_count": 7,
    "school_type": "primary",
    "block": "Ayanavaram",
    "district": "Chennai"
  },
  {
    "school_id": "SCH022",
    "name": "GUPS Ayanavaram",
    "lat": 13.1030,
    "lng": 80.2360,
    "enrollment": 165,
    "teacher_count": 4,
    "school_type": "upper-primary",
    "block": "Ayanavaram",
    "district": "Chennai"
  },
  {
    "school_id": "SCH023",
    "name": "GPS Tondiarpet North",
    "lat": 13.1095,
    "lng": 80.2840,
    "enrollment": 0,
    "teacher_count": 1,
    "school_type": "primary",
    "block": "Tondiarpet",
    "district": "Chennai"
  },
  {
    "school_id": "SCH024",
    "name": "GPS Tondiarpet Main",
    "lat": 13.1130,
    "lng": 80.2870,
    "enrollment": 355,
    "teacher_count": 10,
    "school_type": "primary",
    "block": "Tondiarpet",
    "district": "Chennai"
  },
  {
    "school_id": "SCH025",
    "name": "GUPS Tondiarpet",
    "lat": 13.1110,
    "lng": 80.2855,
    "enrollment": 200,
    "teacher_count": 5,
    "school_type": "upper-primary",
    "block": "Tondiarpet",
    "district": "Chennai"
  },
  {
    "school_id": "MDU001",
    "name": "GPS Melur East",
    "lat": 10.0463,
    "lng": 78.3392,
    "enrollment": 0,
    "teacher_count": 1,
    "school_type": "primary",
    "block": "Melur",
    "district": "Madurai"
  },
  {
    "school_id": "MDU002",
    "name": "GPS Melur Main",
    "lat": 10.0521,
    "lng": 78.3445,
    "enrollment": 298,
    "teacher_count": 8,
    "school_type": "primary",
    "block": "Melur",
    "district": "Madurai"
  },
  {
    "school_id": "MDU003",
    "name": "GUPS Melur",
    "lat": 10.0494,
    "lng": 78.3417,
    "enrollment": 186,
    "teacher_count": 5,
    "school_type": "upper-primary",
    "block": "Melur",
    "district": "Madurai"
  },
  {
    "school_id": "MDU004",
    "name": "GPS Tirumangalam South",
    "lat": 9.8235,
    "lng": 77.9858,
    "enrollment": 61,
    "teacher_count": 1,
    "school_type": "primary",
    "block": "Tirumangalam",
    "district": "Madurai"
  },
  {
    "school_id": "MDU005",
    "name": "GPS Tirumangalam Main",
    "lat": 9.8287,
    "lng": 77.9903,
    "enrollment": 352,
    "teacher_count": 9,
    "school_type": "primary",
    "block": "Tirumangalam",
    "district": "Madurai"
  },
  {
    "school_id": "MDU006",
    "name": "GHS Tirumangalam",
    "lat": 9.8268,
    "lng": 77.9881,
    "enrollment": 478,
    "teacher_count": 14,
    "school_type": "high",
    "block": "Tirumangalam",
    "district": "Madurai"
  },
  {
    "school_id": "MDU007",
    "name": "GPS Usilampatti West",
    "lat": 9.9679,
    "lng": 77.7886,
    "enrollment": 45,
    "teacher_count": 1,
    "school_type": "primary",
    "block": "Usilampatti",
    "district": "Madurai"
  },
  {
    "school_id": "MDU008",
    "name": "GPS Usilampatti Main",
    "lat": 9.9724,
    "lng": 77.7935,
    "enrollment": 321,
    "teacher_count": 8,
    "school_type": "primary",
    "block": "Usilampatti",
    "district": "Madurai"
  },
  {
    "school_id": "MDU009",
    "name": "GHSS Usilampatti",
    "lat": 9.9708,
    "lng": 77.7914,
    "enrollment": 590,
    "teacher_count": 20,
    "school_type": "higher-secondary",
    "block": "Usilampatti",
    "district": "Madurai"
  },
  {
    "school_id": "MDU010",
    "name": "GPS Alanganallur North",
    "lat": 10.0487,
    "lng": 78.0908,
    "enrollment": 0,
    "teacher_count": 1,
    "school_type": "primary",
    "block": "Alanganallur",
    "district": "Madurai"
  },
  {
    "school_id": "MDU011",
    "name": "GPS Alanganallur Main",
    "lat": 10.0526,
    "lng": 78.0952,
    "enrollment": 276,
    "teacher_count": 7,
    "school_type": "primary",
    "block": "Alanganallur",
    "district": "Madurai"
  },
  {
    "school_id": "MDU012",
    "name": "GUPS Alanganallur",
    "lat": 10.0509,
    "lng": 78.0930,
    "enrollment": 173,
    "teacher_count": 5,
    "school_type": "upper-primary",
    "block": "Alanganallur",
    "district": "Madurai"
  },
  {
    "school_id": "MDU013",
    "name": "GPS Vadipatti East",
    "lat": 10.0843,
    "lng": 77.9645,
    "enrollment": 72,
    "teacher_count": 1,
    "school_type": "primary",
    "block": "Vadipatti",
    "district": "Madurai"
  },
  {
    "school_id": "MDU014",
    "name": "GPS Vadipatti Main",
    "lat": 10.0891,
    "lng": 77.9698,
    "enrollment": 338,
    "teacher_count": 9,
    "school_type": "primary",
    "block": "Vadipatti",
    "district": "Madurai"
  },
  {
    "school_id": "MDU015",
    "name": "GHSS Vadipatti",
    "lat": 10.0872,
    "lng": 77.9676,
    "enrollment": 552,
    "teacher_count": 18,
    "school_type": "higher-secondary",
    "block": "Vadipatti",
    "district": "Madurai"
  },
  {
    "school_id": "CBE001",
    "name": "GPS Singanallur East",
    "lat": 11.0168,
    "lng": 77.0204,
    "enrollment": 0,
    "teacher_count": 1,
    "school_type": "primary",
    "block": "Singanallur",
    "district": "Coimbatore"
  },
  {
    "school_id": "CBE002",
    "name": "GPS Singanallur Main",
    "lat": 11.0215,
    "lng": 77.0251,
    "enrollment": 340,
    "teacher_count": 9,
    "school_type": "primary",
    "block": "Singanallur",
    "district": "Coimbatore"
  },
  {
    "school_id": "CBE003",
    "name": "GUPS Singanallur",
    "lat": 11.0193,
    "lng": 77.0228,
    "enrollment": 210,
    "teacher_count": 6,
    "school_type": "upper-primary",
    "block": "Singanallur",
    "district": "Coimbatore"
  },
  {
    "school_id": "CBE004",
    "name": "GPS Peelamedu North",
    "lat": 11.0271,
    "lng": 77.0044,
    "enrollment": 55,
    "teacher_count": 1,
    "school_type": "primary",
    "block": "Peelamedu",
    "district": "Coimbatore"
  },
  {
    "school_id": "CBE005",
    "name": "GPS Peelamedu Main",
    "lat": 11.0318,
    "lng": 77.0091,
    "enrollment": 388,
    "teacher_count": 10,
    "school_type": "primary",
    "block": "Peelamedu",
    "district": "Coimbatore"
  },
  {
    "school_id": "CBE006",
    "name": "GHSS Peelamedu",
    "lat": 11.0301,
    "lng": 77.0069,
    "enrollment": 512,
    "teacher_count": 17,
    "school_type": "higher-secondary",
    "block": "Peelamedu",
    "district": "Coimbatore"
  },
  {
    "school_id": "CBE007",
    "name": "GPS Kuniyamuthur West",
    "lat": 10.9757,
    "lng": 76.9641,
    "enrollment": 0,
    "teacher_count": 1,
    "school_type": "primary",
    "block": "Kuniyamuthur",
    "district": "Coimbatore"
  },
  {
    "school_id": "CBE008",
    "name": "GPS Kuniyamuthur Main",
    "lat": 10.9803,
    "lng": 76.9690,
    "enrollment": 275,
    "teacher_count": 7,
    "school_type": "primary",
    "block": "Kuniyamuthur",
    "district": "Coimbatore"
  },
  {
    "school_id": "CBE009",
    "name": "GUPS Kuniyamuthur",
    "lat": 10.9782,
    "lng": 76.9668,
    "enrollment": 163,
    "teacher_count": 4,
    "school_type": "upper-primary",
    "block": "Kuniyamuthur",
    "district": "Coimbatore"
  },
  {
    "school_id": "CBE010",
    "name": "GPS Saravanampatti East",
    "lat": 11.0752,
    "lng": 76.9960,
    "enrollment": 68,
    "teacher_count": 1,
    "school_type": "primary",
    "block": "Saravanampatti",
    "district": "Coimbatore"
  },
  {
    "school_id": "CBE011",
    "name": "GPS Saravanampatti Main",
    "lat": 11.0798,
    "lng": 77.0007,
    "enrollment": 294,
    "teacher_count": 8,
    "school_type": "primary",
    "block": "Saravanampatti",
    "district": "Coimbatore"
  },
  {
    "school_id": "CBE012",
    "name": "GUPS Saravanampatti",
    "lat": 11.0777,
    "lng": 76.9985,
    "enrollment": 181,
    "teacher_count": 5,
    "school_type": "upper-primary",
    "block": "Saravanampatti",
    "district": "Coimbatore"
  },
  {
    "school_id": "CBE013",
    "name": "GPS Ganapathy North",
    "lat": 11.0455,
    "lng": 76.9778,
    "enrollment": 47,
    "teacher_count": 1,
    "school_type": "primary",
    "block": "Ganapathy",
    "district": "Coimbatore"
  },
  {
    "school_id": "CBE014",
    "name": "GPS Ganapathy Main",
    "lat": 11.0498,
    "lng": 76.9821,
    "enrollment": 316,
    "teacher_count": 8,
    "school_type": "primary",
    "block": "Ganapathy",
    "district": "Coimbatore"
  },
  {
    "school_id": "CBE015",
    "name": "GHS Ganapathy",
    "lat": 11.0479,
    "lng": 76.9800,
    "enrollment": 448,
    "teacher_count": 15,
    "school_type": "high",
    "block": "Ganapathy",
    "district": "Coimbatore"
  }
]