[
  {
    "school_id": "SCH001",
    "name": "GPS Korattur East",
    "lat": 13.1027,
    "lng": 80.1635,
    "enrollment": 0,
    "teacher_count": 1,
    "school_type": "primary",
    "block": "Ambattur",
    "district": "Chennai"
  },
  {
    "school_id": "SCH002",
    "name": "GPS Ambattur Main",
    "lat": 13.1140,
    "lng": 80.1600,
    "enrollment": 312,
    "teacher_count": 8,
    "school_type": "primary",
    "block": "Ambattur",
    "district": "Chennai"
  },
  {
    "school_id": "SCH003",
    "name": "GPS Padi North",
    "lat": 13.1065,
    "lng": 80.1710,
    "enrollment": 78,
    "teacher_count": 1,
    "school_type": "primary",
    "block": "Ambattur",
    "district": "Chennai"
  },
  {
    "school_id": "SCH004",
    "name": "GUPS Ambattur Industrial",
    "lat": 13.1185,
    "lng": 80.1520,
    "enrollment": 210,
    "teacher_count": 6,
    "school_type": "upper-primary",
    "block": "Ambattur",
    "district": "Chennai"
  },
  {
    "school_id": "SCH005",
    "name": "GPS Villivakkam South",
    "lat": 13.0940,
    "lng": 80.2035,
    "enrollment": 0,
    "teacher_count": 1,
    "school_type": "primary",
    "block": "Villivakkam",
    "district": "Chennai"
  },
  {
    "school_id": "SCH006",
    "name": "GPS Villivakkam Main",
    "lat": 13.0975,
    "lng": 80.1975,
    "enrollment": 280,
    "teacher_count": 7,
    "school_type": "primary",
    "block": "Villivakkam",
    "district": "Chennai"
  },
  {
    "school_id": "SCH007",
    "name": "GUPS Villivakkam",
    "lat": 13.0955,
    "lng": 80.2010,
    "enrollment": 185,
    "teacher_count": 5,
    "school_type": "upper-primary",
    "block": "Villivakkam",
    "district": "Chennai"
  },
  {
    "school_id": "SCH008",
    "name": "GPS Anna Nagar West",
    "lat": 13.0820,
    "lng": 80.2100,
    "enrollment": 52,
    "teacher_count": 1,
    "school_type": "primary",
    "block": "Anna Nagar",
    "district": "Chennai"
  },
  {
    "school_id": "SCH009",
    "name": "GPS Anna Nagar Main",
    "lat": 13.0870,
    "lng": 80.2130,
    "enrollment": 340,
    "teacher_count": 9,
    "school_type": "primary",
    "block": "Anna Nagar",
    "district": "Chennai"
  },
  {
    "school_id": "SCH010",
    "name": "GUPS Anna Nagar",
    "lat": 13.0850,
    "lng": 80.2090,
    "enrollment": 220,
    "teacher_count": 6,
    "school_type": "upper-primary",
    "block": "Anna Nagar",
    "district": "Chennai"
  },
  {
    "school_id": "SCH011",
    "name": "GPS Kolathur East",
    "lat": 13.1150,
    "lng": 80.2260,
    "enrollment": 0,
    "teacher_count": 2,
    "school_type": "primary",
    "block": "Kolathur",
    "district": "Chennai"
  },
  {
    "school_id": "SCH012",
    "name": "GPS Kolathur Main",
    "lat": 13.1195,
    "lng": 80.2310,
    "enrollment": 295,
    "teacher_count": 8,
    "school_type": "primary",
    "block": "Kolathur",
    "district": "Chennai"
  },
  {
    "school_id": "SCH013",
    "name": "GUPS Kolathur",
    "lat": 13.1170,
    "lng": 80.2285,
    "enrollment": 175,
    "teacher_count": 4,
    "school_type": "upper-primary",
    "block": "Kolathur",
    "district": "Chennai"
  },
  {
    "school_id": "SCH014",
    "name": "GPS Perambur North",
    "lat": 13.1220,
    "lng": 80.2450,
    "enrollment": 63,
    "teacher_count": 1,
    "school_type": "primary",
    "block": "Perambur",
    "district": "Chennai"
  },
  {
    "school_id": "SCH015",
    "name": "GPS Perambur Main",
    "lat": 13.1260,
    "lng": 80.2490,
    "enrollment": 410,
    "teacher_count": 11,
    "school_type": "primary",
    "block": "Perambur",
    "district": "Chennai"
  },
  {
    "school_id": "SCH016",
    "name": "GUPS Perambur",
    "lat": 13.1240,
    "lng": 80.2470,
    "enrollment": 260,
    "teacher_count": 7,
    "school_type": "upper-primary",
    "block": "Perambur",
    "district": "Chennai"
  },
  {
    "school_id": "SCH017",
    "name": "GPS Madhavaram South",
    "lat": 13.1550,
    "lng": 80.2350,
    "enrollment": 0,
    "teacher_count": 1,
    "school_type": "primary",
    "block": "Madhavaram",
    "district": "Chennai"
  },
  {
    "school_id": "SCH018",
    "name": "GPS Madhavaram Main",
    "lat": 13.1620,
    "lng": 80.2410,
    "enrollment": 330,
    "teacher_count": 9,
    "school_type": "primary",
    "block": "Madhavaram",
    "district": "Chennai"
  },
  {
    "school_id": "SCH019",
    "name": "GUPS Madhavaram",
    "lat": 13.1590,
    "lng": 80.2380,
    "enrollment": 195,
    "teacher_count": 5,
    "school_type": "upper-primary",
    "block": "Madhavaram",
    "district": "Chennai"
  },
  {
    "school_id": "SCH020",
    "name": "GPS Ayanavaram West",
    "lat": 13.1010,
    "lng": 80.2340,
    "enrollment": 45,
    "teacher_count": 1,
    "school_type": "primary",
    "block": "Ayanavaram",
    "district": "Chennai"
  },
  {
    "school_id": "SCH021",
    "name": "GPS Ayanavaram Main",
    "lat": 13.1050,
    "lng": 80.2380,
    "enrollment": 275,
    "teacher_count": 7,
    "school_type": "primary",
    "block": "Ayanavaram",
    "district": "Chennai"
  },
  {
    "school_id": "SCH022",
    "name": "GUPS Ayanavaram",
    "lat": 13.1030,
    "lng": 80.2360,
    "enrollment": 165,
    "teacher_count": 4,
    "school_type": "upper-primary",
    "block": "Ayanavaram",
    "district": "Chennai"
  },
  {
    "school_id": "SCH023",
    "name": "GPS Tondiarpet North",
    "lat": 13.1095,
    "lng": 80.2840,
    "enrollment": 0,
    "teacher_count": 1,
    "school_type": "primary",
    "block": "Tondiarpet",
    "district": "Chennai"
  },
  {
    "school_id": "SCH024",
    "name": "GPS Tondiarpet Main",
    "lat": 13.1130,
    "lng": 80.2870,
    "enrollment": 355,
    "teacher_count": 10,
    "school_type": "primary",
    "block": "Tondiarpet",
    "district": "Chennai"
  },
  {
    "school_id": "SCH025",
    "name": "GUPS Tondiarpet",
    "lat": 13.1110,
    "lng": 80.2855,
    "enrollment": 200,
    "teacher_count": 5,
    "school_type": "upper-primary",
    "block": "Tondiarpet",
    "district": "Chennai"
  }
]
